city,sum,latitude,longitude
Hamburg,15319,53.550341,10.000654
Geneva,15303,46.2017559,6.1466014
Batavia,11466,-6.175247,106.8270488
Moscow,8584,55.625578,37.6063916
Bangkok,8466,13.7524938,100.4935089
Zurich,8035,47.3744489,8.5410422
Aachen,6935,50.776351,6.083862
London,6691,51.4893335,-0.14405508452768728
Bologna,6288,44.4938203,11.3426327
Bari,6195,41.1257843,16.8620293
Torino,6015,45.0677551,7.6824892
Cambridge,5823,52.2055314,0.1186637
Karlsruhe,5153,49.0068705,8.4034195
Seoul,4916,37.5666791,126.9782914
Pisa,4904,43.4714722,10.679791173704576
Beijing,4767,40.190632,116.412144
Padova,4503,45.391408,11.805848677115883
Rio de Janeiro,4375,-22.9110137,-43.2093727
Wien,4346,48.2083537,16.3725042
Rome,4186,41.8933203,12.4829321
Milano,4105,45.4641943,9.1896346
Mumbai,4086,19.08157715,72.88662753964906
Davis,3826,40.7474784,-92.3965311
Madrid,3808,40.4167047,-3.7035825
Gainesville,3768,29.6519684,-82.3249846
Villeurbanne,3742,45.7733573,4.8868454
Palaiseau,3626,48.7144587,2.2453842
Adana,3555,36.9863599,35.3252861
Perugia,3435,43.1070321,12.402996209906487
Piscataway,3352,40.5462553,-74.4660408
Madison,3305,43.074761,-89.3837613
Notre Dame,3290,41.704567749999995,-86.23822026017265
Louvain-la-Neuve,3226,50.6741689,4.613790587187648
Gif-sur-Yvette,3166,48.7018823,2.134529
Bruxelles,3153,50.8465573,4.351697
Dubna,3112,56.7362705,37.1623696
Santander,3048,43.4618932,-3.8100255
Boston,2994,42.3554334,-71.060511
Kolkata,2921,22.5726459,88.3638953
Bristol,2885,51.4538022,-2.5972985
Chicago,2882,41.8755616,-87.6244212
College Station,2812,30.6183939,-96.3455991
Iowa City,2690,41.6612561,-91.5299106
Ithaca,2682,42.437417499999995,-76.54837235139263
Riverside,2673,33.9824949,-117.374238
Santa Barbara,2643,34.4221319,-119.702667
Helsinki,2599,60.1674881,24.9427473
Didcot,2584,51.6056908,-1.2467923
West Lafayette,2528,40.4258686,-86.9080655
Providence,2518,41.8239891,-71.4128343
Princeton,2505,40.3496953,-74.6597376
Firenze,2493,43.7697955,11.2556404
Brussel,2485,50.8465573,4.351697
College Park,2469,38.980666,-76.9369189
Lawrence,2449,38.9719137,-95.2359403
Strasbourg,2412,48.584614,7.7507127
Protvino,2300,54.8707703,37.2188629
Chandigarh,2289,30.7334421,76.7797143
Istanbul,2281,41.0766019,29.052495
Houston,2251,29.7589382,-95.3676974
Pavia,2236,45.036854649999995,9.137825082826026
La Jolla,2131,32.8401623,-117.2740777
Lubbock,2119,33.5855677,-101.8470215
Rochester,2055,43.157285,-77.615214
Budapest,2014,47.4978789,19.0402383
Lisboa,1998,38.7077507,-9.1365919
Columbus,1991,39.9622601,-83.0007065
Taipei,1991,25.0375198,121.5636796
Tallahassee,1987,30.4380832,-84.2809332
Minneapolis,1949,44.9772995,-93.2654692
Napoli,1930,40.8358846,14.2487679
Mexico City,1880,19.4326296,-99.1331785
Pasadena,1854,34.1476507,-118.144155
Baltimore,1847,39.2908816,-76.610759
Nashville,1825,36.1622767,-86.7742984
Ghent,1818,51.0538286,3.7250121
Charlottesville,1772,38.029306,-78.4766781
Los Angeles,1748,34.0536909,-118.242766
Delhi,1739,28.6273928,77.1716954
Novara,1729,45.584250049999994,8.545996970894572
Lincoln,1706,40.8088861,-96.7077751
Debrecen,1677,47.531399,21.6259782
Sofia,1639,42.6977028,23.3217359
Catania,1628,37.5023612,15.0873718
Daegu,1609,35.8713,128.6018
Warsaw,1588,52.2337172,21.071432235636493
Villigen,1567,47.5262684,8.2147282
Tehran,1548,35.6892523,51.3896004
San Diego,1511,32.7174202,-117.162772
Gatchina (St. Petersburg),1476,59.8607639,30.3203642
Boulder,1465,40.0149856,-105.270545
Ioánnina,1464,39.6639818,20.8522784
Oviedo,1443,43.3618625,-5.8483581
Bhubaneswar,1419,20.2602964,85.8394521
São Paulo,1403,-23.5506507,-46.6333824
Swierk,1390,53.7085857,16.3685245
Evanston,1368,42.0470043,-87.6846053
Chung-Li,1326,39.7837304,-100.445882
Pittsburgh,1247,40.4416941,-79.9900861
Islamabad,1230,33.6938118,73.0651511
Trento,1215,46.1029536,11.12974249416882
Buffalo,1206,42.8867166,-78.8783922
Uxbridge,1203,51.5449509,-0.4816672
Nicosia,1193,35.1746503,33.3638783
Kuala Lumpur,1172,3.1516964,101.6942371
Pune,1172,18.5213738,73.8545071
Antwerpen,1163,51.2211097,4.3997081
Manhattan,1132,40.7896239,-73.9598939
Athens,1117,33.9597677,-83.376398
Split,1115,43.5116383,16.4399659
Melbourne,1075,-37.8142454,144.9631732
Trieste,1069,45.6496485,13.7772781
Waco,1055,31.5491899,-97.1474628
Belgrade,1049,44.8178131,20.4568974
Novosibirsk,966,55.0288307,82.9226887
Bogota,962,4.6533816,-74.0836333
Vienna,957,48.2083537,16.3725042
Aghia Paraskevi,944,38.0066759,23.8226942
Genova,941,44.40726,8.9338624
Tallinn,921,59.4372155,24.7453688
Knoxville,899,35.9603948,-83.9210261
Zagreb,873,45.8130967,15.9772795
Detroit,821,42.3315509,-83.0466403
Cairo,760,30.0443879,31.2357257
Tuscaloosa,729,33.2095614,-87.5675258
Frascati,718,41.8082452,12.6803684
Roma,687,41.8933203,12.4829321
Ankara,685,39.7160439,32.7059948
Suwon,590,37.2633325,127.0287472
Puebla,544,18.833333,-98.0
Miami,515,25.7741728,-80.19362
Minsk,467,53.9024716,27.5618225
Milan,454,45.4641943,9.1896346
Vilnius,435,54.6870458,25.2829111
Kwangju,426,35.1594647,126.8515034
Hammond,409,41.6173959,-87.5220108
Mulhouse,385,47.7467233,7.3389937
Tbilisi,374,41.6934591,44.8014495
Oxford,338,51.7520131,-1.2578499
Brussels,330,50.8465573,4.351697
Potenza,326,40.51731195,15.821608824871046
Bangalore,324,12.98815675,77.62260003796
Washington,323,38.8950368,-77.0365427
New York,320,40.7127281,-74.0060152
Kharkov,318,49.9923181,36.2310146
Prague,317,50.0874654,14.4212535
Dublin,293,53.3493795,-6.2605593
Yerevan,293,40.1777112,44.5126233
Livermore,292,37.6820583,-121.768053
Cottbus,287,51.7567447,14.3357307
Solan,271,42.9431682,1.6950613
Mayaguez,267,18.21163545,-67.0953571846176
Adiyaman,249,37.7602985,38.2772986
Campinas,243,-22.9056391,-47.059564
Santiniketan,240,6.1212013,-75.6275627
Isfahan,237,32.6707877,51.6650002
Tokyo,236,35.6768601,139.7638947
Chiang Mai,219,18.7882778,98.9858802
Doha,218,25.2856329,51.5264162
Christchurch,204,-43.530955,172.6364343
Lappeenranta,193,61.0583713,28.1862742
St. Petersburg,189,59.9606739,30.1586551
Quito,185,-0.2201641,-78.5123274
Siena,182,43.167205949999996,11.467561040475552
Mersin,182,36.7978381,34.6298391
Lisbon,180,38.7077507,-9.1365919
Auckland,152,-36.852095,174.7631803
Madras,141,44.6334544,-121.129487
Riga,140,56.9493977,24.1051846
Nakhon Pathom,139,13.8918425,100.0165659
San Luis Potosí,136,22.5000001,-100.4949145
Pathumthani,136,13.97270675,100.51976929479142
Ioannina,132,39.6639818,20.8522784
Tomsk,130,58.6124279,82.0475315
Tokat,130,40.38658275,36.656546010111526
Kajang,127,2.9948437,101.7896595
Southampton,126,50.9025349,-1.404189
Kars,121,40.4558435,42.9979531
Izmir,121,38.23166,27.02997
Orem,120,40.2981599,-111.6944313
Sinop,116,41.6476377,34.9560137
San Francisco,115,37.7792588,-122.4193286
Khon Kaen,115,16.6022387,102.6352933
Bingol,115,38.8861265,40.4972333
Florence,110,43.7697955,11.2556404
Bethesda,108,38.9846816,-77.0942447
Mexico city,106,19.4326296,-99.1331785
Matara,101,5.947822,80.5482919
Zewail,99,30.156315983825383,31.813855057070878
Pathumwan,97,13.7482977,100.52584733414871
(St. Petersburg),93,59.9606739,30.1586551
Toronto,91,43.6534817,-79.3839347
Krakow,89,50.0469432,19.997153435836697
Yazd,88,32.0406164,54.6657189
Erzincan,87,39.6073429,39.2013209
Pathum Thani,86,14.048667,100.5640405
Konya,82,37.872734,32.4924376
Clayton,81,33.5204959,-84.3591713
La Laguna,79,28.4857715,-16.3159422
Jeddah,78,21.5504432,39.1742363
Porto Alegre,74,-30.0324999,-51.2303767
Pelotas,71,-31.7699736,-52.3410161
Geelong,70,-38.1493248,144.3598241
Hermosillo,67,29.0948207,-110.9692202
Sydney,66,-33.8698439,151.2082848
Ann Arbor,65,42.2813722,-83.7484616
Jeonju,65,35.8237631,127.1472805
München,61,48.1371079,11.5753822
Selangor,58,3.2083304,101.304146
Nagoya,57,35.1851045,136.8998438
Antwerp,56,51.2211097,4.3997081
Qinhuangdao,56,39.9395724,119.5894129
Tsukuba,56,36.0833265,140.077279
Bogotá,56,4.6533816,-74.0836333
Stockholm,55,59.3251172,18.0710935
Silver Spring,55,38.9959461,-77.0276231
Barcelona,55,41.3828939,2.1774322
Seattle,55,47.6038321,-122.330062
Fortaleza,54,-3.7304512,-38.5217989
Paris,54,48.8588897,2.3200410217200766
Amsterdam,51,52.3730796,4.8924534
Mons,51,50.4549568,3.951958
Genoa,50,44.40726,8.9338624
Suez,49,29.974498,32.537086
El-Fayoum,49,29.3074076,30.8399651
Nakhon Ratchasima,48,14.9747339,102.0981161
Bonn,48,50.7352621,7.1024635
Marseille,47,43.2961743,5.3699525
Nonthaburi,47,13.8610918,100.3456772
Songkhla,47,6.8790221,100.5498542
Kyoto,46,35.021041,135.7556075
Liverpool,46,53.4071991,-2.99168
Singapore,45,1.357107,103.8194992
Phitsanulok,44,16.9779975,100.3848239
Philadelphia,44,39.9527237,-75.1635262
Londrina,44,-23.3112878,-51.1595023
Mainz,43,49.9995205,8.2736253
Guangzhou,43,23.1301964,113.2592945
Chonburi,43,13.1857117,101.1210777
Freiburg,43,47.9960901,7.8494005
Plovdiv,42,42.1418541,24.7499297
Fukuoka,40,33.6251241,130.6180016
Upton,38,31.3720387,-102.0386055
Orsay,38,48.699184,2.187457
Berkeley,37,37.8708393,-122.272863
Praha,36,50.0874654,14.4212535
Leuven,36,50.879202,4.7011675
Heidelberg,36,49.4093582,8.694724
Manchester,35,53.4794892,-2.2451148
Stanford,35,37.426540700000004,-122.17030545534064
Honolulu,35,21.304547,-157.855676
I-Milano,34,45.4641943,9.1896346
Montreal,34,45.5031824,-73.5698065
Chiba,34,35.549399,140.2647303
Durham,34,54.666667,-1.75
Victoria,33,-36.5986096,144.6780052
Karaman,33,37.1796848,33.3383665
Hat Yai,32,7.0074644,100.4689889
St. Paul,32,44.9497487,-93.0931028
Erlangen,31,49.589157099999994,10.98120719922546
Patumwan,31,13.7403314,100.53411579055937
Kobe,30,34.6932379,135.1943764
Edinburgh,29,55.9533456,-3.1883749
Hong Kong,29,22.350627,114.1849161
Vancouver,29,49.2608724,-123.113952
Brighton,28,50.8214626,-0.1400561
St.Petersburg,28,59.9606739,30.1586551
Bern,28,46.9484742,7.4521749
Anhui,28,32.0,117.0
Amherst,28,42.3731948,-72.5198761
Birmingham,27,52.4796992,-1.9026911
Chiang Rai,27,19.7589517,99.6734592
Göttingen,27,51.5328328,9.9351811
Ho Chi Minh City,26,10.7763897,106.7011391
Glasgow,26,55.861155,-4.2501687
Ames,26,50.536715,2.4086536
Sao Paulo,26,-23.5506507,-46.6333824
Sapporo,26,43.061936,141.3542924
Pathumwan Bangkok,26,13.7482977,100.52584733414871
Khlong Luang,25,14.1033948,100.67034586552202
Hannover,25,52.3744779,9.7385532
New Haven,25,41.3082138,-72.9250518
Rayong,25,12.7943716,101.3705344
Dresden,24,51.0493286,13.7381437
Gatchina (St.-Petersburg),24,59.8607639,30.3203642
Uppsala,24,59.8586126,17.6387436
East Lansing,24,42.7320307,-84.4721678
Santa Cruz,23,28.467178,-16.2507843
Ubon Ratchathani,23,15.1879684,105.3269544
Lancaster,23,40.03813,-76.3056686
Berlin,22,52.510885,13.3989367
Annecy-le-Vieux,22,45.9191358,6.1420652
Santiago,22,9.8694792,-83.7980749
Adelaide,21,-34.9281805,138.5999312
Wuhan,21,30.5951051,114.2999353
Wuppertal,21,51.264018,7.1780374
Buenos Aires,21,-34.6083696,-58.4440583
Manila,21,14.5904492,120.9803621
Bratislava,21,48.1516988,17.1093063
Tucson,21,32.2228765,-110.974847
Oslo,20,59.9133301,10.7389701
Rotterdam,20,51.9244424,4.47775
Chapel Hill,20,35.9131542,-79.05578
Serdang,20,3.0233688499999998,101.71602716231698
Surrey,19,51.2715316,-0.3414523511290909
Nakhon Si Thammarat,19,8.6772337,99.7309635
Klong Luang,19,14.08220345,100.61292424999999
India,19,22.3511148,78.6677428
Cooperstown,19,42.7006303,-74.924321
Bucharest,19,44.4361414,26.1027202
Austin,19,30.2711286,-97.7436995
Sheffield,19,53.3806626,-1.4702278
Nijmegen,19,51.842574850000005,5.838960628748229
Sendai,19,38.2677554,140.8691498
Osaka,19,34.6937569,135.5014539
Lund,18,55.7029296,13.1929449
Arlington,18,32.7355816,-97.1071186
Irvington,18,41.0398662,-73.872717
Johannesburg,18,-26.205,28.049722
ST. PAUL,18,44.9497487,-93.0931028
Urbana,18,40.1117174,-88.207301
South Seoul,17,41.3076924,-72.9333905
Fort Collins,17,40.5871782,-105.0770113
Grenoble,17,45.1875602,5.7357819
Norman,17,35.2225717,-97.4394816
Tel Aviv,17,32.0852997,34.7818064
Edmonton,17,53.5462055,-113.491241
Utrecht,17,52.0907006,5.1215634
Copenhagen,17,55.6867243,12.5700724
Cologne,17,43.7218277,0.9774958
Ottawa,16,45.4208777,-75.6901106
Jakarta,16,-6.175247,106.8270488
Zografou,16,37.9774464,23.7713853
Irvine,16,33.6856969,-117.825981
Rehovot,16,31.8952532,34.8105616
Argonne,16,49.20222595,4.942973285932539
Hamilton,16,43.2560802,-79.8728583
St.-Petersburg,16,59.9606739,30.1586551
Niigata,16,37.6452283,138.7669125
Ljubljana,15,46.0500268,14.5069289
Borno,15,45.9473303,10.2064036
Lisban,15,-37.79228365,144.7961464
Udine,15,46.0634632,13.2358377
Kobenhavn,15,55.6867243,12.5700724
Cluj-Napoca,15,46.769379,23.5899542
Nagasaki,15,33.1154683,129.7874339
Stony Brook,15,40.9256538,-73.140943
"Taipei,",14,25.0375198,121.5636796
Turku,14,60.4517531,22.2670522
Clermont-Ferrand,14,45.7774551,3.0819427
Brisbane,14,-27.4689682,153.0234991
Yamaguchi,14,34.2379614,131.5873845
Bloomington,14,39.1670396,-86.5342881
Waalre,14,51.3856734,5.466115689689311
Jackson,14,32.2998686,-90.1830408
Hangzhou,14,30.2489634,120.2052342
Legnaro,14,45.345648,11.963935
Valparaíso,14,-33.0458456,-71.6196749
Rende,14,39.3319934,16.1843828
Reykjavik,14,64.145981,-21.9422367
Kanagawa,14,35.4342935,139.374753
Eugene,14,44.0505054,-123.0950506
Quetta,14,30.1916569,67.0006542
Shanghai,14,31.2312707,121.4700152
Ceske Budejovice,13,48.9747357,14.474285
Perth,13,-31.9558933,115.8605855
Agia Paraskevi,13,38.0066759,23.8226942
Rom,13,41.8933203,12.4829321
Yokohama,13,35.4503381,139.6343802
Yangon,13,16.7967129,96.1609916
Waltham,12,42.3756401,-71.2358004
Dallas,12,32.7762719,-96.7968559
Nagaoka,12,37.446996,138.8512199
Cape Town,12,-33.9288301,18.4172197
Gatchina,12,59.5706273,30.1305083
Talence,12,44.8088438,-0.5879629
New Delhi,12,28.64308585,77.21926705734865
Tashkent,12,41.3123363,69.2787079
Mahasarakham,11,16.2422682,103.2672732
Nanjing,11,32.0438284,118.7788631
Gatchina-(St-Petersburg),11,59.8607639,30.3203642
Burnaby,11,49.2433804,-122.972545
atchina (St. Petersburg),11,,
Kashiwa,11,35.8676218,139.9756876
Northwest Hammond,11,30.5069542,-90.4620786
Cincinnati,11,39.1014537,-84.5124602
Shandong,11,36.398987,118.5055691
Salaya,11,24.0473815,80.16176985766498
Dortmund,11,51.5142273,7.4652789
Thessaloniki,10,40.6403167,22.9352716
Mayagüez,10,18.21163545,-67.0953571846176
Coventry,10,52.4081812,-1.510477
Würzburg,10,49.7780356,9.943476907125579
Haifa,10,32.8191218,34.9983856
Bergen,10,60.3943055,5.3259192
Atlanta,10,33.7489924,-84.3902644
Galveston,10,29.3872254,-94.992736
Rennes,10,48.1113387,-1.6800198
Kumamoto,10,32.6450475,130.6341345
Taegu,9,35.8713,128.6018
Siegen,9,50.8751175,8.0256131
Fairfield,9,39.7886111,-82.6418883
Indianapolis,9,39.7683331,-86.1583502
Toyama,9,36.6468015,137.2183531
Phayao,9,19.341673,100.1854539
St. Louis,9,38.6280278,-90.1910154
Graz,9,47.0708678,15.4382786
Geneva 23,9,14.3794114,120.9366833
Okazaki,9,34.9548784,137.1728226
Nakhonpathom,9,13.812682500000001,100.07238090788499
Lecce,9,40.152217300000004,18.2260628338229
Phuket,9,7.9366015,98.3529292
Chelmsford,9,51.7345329,0.4730532
Saraburi,9,14.6240563,100.8601022
Umeå,9,63.8256568,20.2630745
Hanoi,9,21.0283334,105.854041
Nakorn Pathom,9,,
Ruston,9,32.5297498,-92.6386604
Hiroshima,9,34.3917241,132.4517589
Phnom Penh,9,11.5730391,104.857807
Munich,9,48.1371079,11.5753822
Rangsit,8,13.987449,100.6100666
Lampang,8,18.6799728,99.7332501
Phetchabun,8,16.3293171,100.9552749
Sacramento,8,38.5810606,-121.493895
Cardiff,8,51.4816546,-3.1791934
Chiangmai,8,49.8597529,8.5565363
Lamphun,8,18.2661422,98.96749
New Brunswick,8,46.2555734,-65.8421701841309
Maebashi,8,36.3893418,139.0632826
Isehara,8,35.4030614,139.3150172
Padua,8,45.4077172,11.8734455
Surabaya,8,-7.2459717,112.7378266
Qinzhou,8,34.5797531,105.7062921
San Jose,8,37.3361663,-121.890591
Daejeon,8,36.3497007,127.3849016
Kagawa,8,34.2480104,134.0586579
Nomi City,8,36.446829449999996,136.55399975538916
Selangor Darul Ehsan,8,3.2083304,101.304146
Saitama,8,35.9754168,139.4160114
PR,8,50.0874654,14.4212535
Lima,7,-12.0621065,-77.0365256
DeKalb,7,41.8903447,-88.7713953
Samarinda,7,-0.5017804,117.1393089
Parkville,7,39.3868522,-76.55086176363942
Chennai,7,13.0836939,80.270186
Ceará,7,-5.3264703,-39.7156073
Sandy Bay,7,36.1307844,-5.340298690428538
Fort Lauderdale,7,26.1223084,-80.1433786
Garching,7,48.2513878,11.6509662
Davao,7,7.0648306,125.6080623
Aarhus C,7,56.20424885,10.263710468026026
Hirosaki,7,40.6030543,140.4640389
La Plata,7,-34.9206797,-57.9537638
BKK,7,13.7524938,100.4935089
Kasugai,7,35.273804,137.007459
Innsbruck,7,47.2654296,11.3927685
Leipzig,7,51.3406321,12.3747329
Hamamatsu,7,34.7109786,137.7259431
Linz,6,48.3059078,14.286198
Chachoengsao,6,13.6093192,101.5467201
Palo Alto,6,37.4443293,-122.1598465
Aichi,6,34.9991645,137.254574
Sakon Nakhon,6,17.1904453,103.9730898
Rabat,6,34.02236,-6.8340222
Châtenay-Malabry,6,48.7670404,2.2775316
Pilsen,6,49.7477415,13.3775249
Paraná,6,-24.4842187,-51.8148872
Kelantan,6,5.4021302,102.0635972
Cheonan,6,36.8150283,127.1140654
Nomi,6,45.928599,11.071881
Criciúma,6,-28.6789941,-49.3695627
Ibaraki,6,36.2869536,140.4703384
Lyon,6,45.7578137,4.8320114
Gold Coast,6,-28.0023731,153.4145987
Olomouc,6,49.5940567,17.251143
Kosice,6,50.1797445,15.5349958
Gambang Kuantan,6,3.7072428,103.0965017
King of Prussia,6,40.09476245,-75.3851333563417
Augusta,6,33.4709714,-81.9748429
Stillwater,6,36.1156306,-97.0585717
Gifu,6,35.7867449,137.0460777
Albuquerque,6,35.0841034,-106.650985
University Park,6,52.9387428,-1.2002956927457427
Dhaka,6,23.7544529,90.393336
Carbondale,5,37.7274692,-89.216655
Ayutthaya,5,14.3189468,100.5111681
Aomori,5,40.886943,140.590121
Łódź,5,51.7687323,19.4569911
Tianjin,5,39.3032619,117.4163641
Hatyai,5,6.93409855,100.3879750591064
Taiyuan,5,37.870009,112.5452739
Norwich,5,52.6285576,1.2923954
Ichikai,5,36.5432544,140.1021523
Istanbu,5,40.78883395388318,29.615441416008316
Santa Clara,5,37.3541132,-121.955174
Okayama,5,34.8581334,133.7759256
Songkla,5,7.0069589,100.50075963786517
Baku,5,40.3755885,49.8328009
Surat Thani,5,9.4674663,98.830042
Saint Jean d’Illac,5,44.8101856,-0.7815257
Jamshoro,5,25.46882325,68.2650813595265
Chon Buri,5,13.1857117,101.1210777
Bo,5,-17.0568696,-64.9912286
Rockville,5,39.0817985,-77.1516844
Leiden,5,52.1594747,4.4908843
St Leonards,5,-33.8225666,151.1923402
Yokohama Kanagawa,5,35.4503381,139.6343802
Shimotsuke,5,36.3943469,139.8515863
Borno State,5,12.1875392,13.3080034
Ragama,5,40.9970072,-5.1274597
Toulouse,5,43.6044622,1.4442469
Vientiane,5,17.9640988,102.6133707
Busan,5,35.1799528,129.0752365
Nishi-ku,5,34.674598,135.476774
CE,5,-5.3264703,-39.7156073
Bang-Rak Bangkok,5,13.7239499,100.5159599
Coimbra,5,40.2111931,-8.4294632
Fez,5,34.0346534,-5.0161926
Chulalongkorn University,5,13.743107349999999,100.53288370292987
Claremont,5,34.0966764,-117.7197785
Klong-Luang,5,14.08220345,100.61292424999999
Okinawa,5,26.5707754,128.0255901
Foster City,5,37.5600336,-122.2688522
Hyogo,5,34.914934,134.860666
Llanelli,5,51.6797331,-4.1620223
Salt Lake City,5,40.7596198,-111.886797
Concord,5,43.207178,-71.537476
Kanchanaburi,5,14.44019,99.2676727
Jiangsu,5,33.0000001,119.9999999
Udon Thani,5,17.5211917,102.6680012
Worcester,4,42.2625621,-71.8018877
Wellington,4,-41.2887953,174.7772114
Casablanca,4,33.5945144,-7.6200284
Phra Nakhon Si Ayutthaya,4,14.3189468,100.5111681
Patumtani,4,,
Wattana,4,19.4929006,100.2788895
Jinan,4,36.6519754,117.1138479
Montpellier,4,43.6112422,3.8767337
Hokkaido,4,43.4519831,142.8197834
Rajshahi,4,24.6285432,89.0376862
Hilo,4,19.685445799999997,-155.10037544637729
Suita,4,34.7594193,135.516835
Granozzo con Monticello,4,45.3671421,8.583931
Lothongkum,4,,
Kensington,4,51.4989948,-0.1991229
Nay Pyi Taw,4,19.7540045,96.1344976
Chantaburi,4,12.9081033,102.0159145
Bochum,4,51.4818111,7.2196635
Cleveland,4,41.4996574,-81.6936772
Colombo,4,6.9388614,79.8542005
Chengdu,4,30.6598628,104.0633717
Maha Sarakham,4,15.9041448,103.0840638
Medford,4,42.4184296,-71.1061639
Buriram,4,14.6107101,102.6453162
Memphis,4,35.1460249,-90.0517638
Akita,4,39.6898802,140.342608
Samutprakarn,4,13.5390822,100.63691620282354
Nagano,4,36.1143945,138.0319015
Patumwan Bangkok,4,13.7403314,100.53411579055937
Ichikawa,4,35.721634,139.9309444
Dolgoprudny,4,55.946607650000004,37.50483582166906
Kampala,4,0.3177137,32.5813539
Hattiesburg,4,31.3271189,-89.2903392
Pathom,4,13.8918425,100.0165659
San-Luis-Potosí,4,22.5000001,-100.4949145
Frederick,4,39.2127031,-78.279166
Calgary,4,51.0456064,-114.057541
Medellin,4,6.269732449999999,-75.60255965090315
Kon Kaen,4,51.2686428,9.9660284
Allerod,4,55.8707776,12.3556762
Bhopal,4,23.2584857,77.401989
Ferrara,4,44.766764249999994,11.827938995640167
Ceara,4,-5.3264703,-39.7156073
Groningen,4,53.2190652,6.5680077
East Melbourne,4,-37.812498,144.9858851
Dublin 4,4,53.32750729999999,-6.227487166789869
Hyderabad,4,17.360589,78.4740613
Arden Hills,4,45.0761409,-93.1666945
Kunming,4,25.0363006,102.7086139
Giessen,4,50.5862066,8.6742306
Marina del Rey,4,33.9776848,-118.448647
Zürich,4,47.3744489,8.5410422
Phayathai,4,45.666034,-73.8675322
Atsugi-shi,4,35.4429646,139.3625125
Ipoh,4,4.5986817,101.0900236
East Falmouth,4,41.5784425,-70.5586401
Juiz de Fora,3,-21.7609533,-43.3501129
Phoenix,3,33.4484367,-112.074141
Zigong,3,29.2995746,104.6928392
Wavre,3,50.7169694,4.610416
Kenilworth,3,42.0894728,-87.7149295
Thonburi,3,13.7605974,100.4787465
San José,3,9.9325427,-84.0795782
Sha Tin,3,22.3815527,114.1904697
Kotabumi,3,-4.8218938,104.8813339
Raleigh,3,35.7803977,-78.6390989
Alexandria,3,44.83495335,8.745030418605868
Nantes Cedex 3,3,,
Petaling Jaya,3,3.0988792,101.6454202
Louisville,3,38.2542376,-85.759407
Kanazawa,3,36.561627,136.6568822
Oujda,3,34.677874,-1.929306
Kamiina Nagano,3,35.663429,137.9360964
Hradec Kralove,3,50.2092113,15.8327512
Chanthaburi,3,12.9081033,102.0159145
Chemnitz,3,50.8323531,12.918914
Nantes,3,47.2186371,-1.5541362
Taiwan,3,23.5983227,120.83537694479215
Canoas,3,-29.9216045,-51.1799525
Poitiers,3,46.5802596,0.340196
Matsumoto,3,36.2382047,137.9687141
Portland,3,45.5202471,-122.674194
Albany,3,42.6511674,-73.754968
Mianyang,3,31.4602714,104.7160723
Koriyama,3,37.404937,140.333381
Palma de Mallorca,3,39.5695818,2.6500745
Des Plaines,3,42.0415823,-87.8873916
East Hanover,3,40.8200998,-74.3648731
Xiamen,3,24.5438732,118.0768065
Nara,3,-0.5252306,166.9324426
Nakhorn Pathom,3,,
Shah Alam,3,3.0739429,101.5185278
Kraków,3,50.0469432,19.997153435836697
Cheongju,3,36.6421169,127.4891742
Cork,3,51.897077,-8.4654674
Concepción,3,-36.8270698,-73.0502064
Lansing,3,42.7338254,-84.5546295
Pohang,3,36.0189315,129.3429384
Drammen,3,59.6964936,10.175641950012762
Piracicaba,3,-22.725165,-47.6493269
Lillehammer,3,61.1333408,10.426585544131413
Bali,3,-8.2271303,115.1919203
Atsugi,3,35.4429646,139.3625125
Nova Friburgo,3,-22.2800004,-42.5325303
"Vilnius,",3,54.6870458,25.2829111
Kathmandu,3,27.708317,85.3205817
Phetchaburi,3,13.0692869,99.6044376
Johor,3,2.0228821,103.3114564
West Haven,3,41.2706527,-72.9470471
Fresno,3,36.7394421,-119.78483
Las Vegas,3,36.1672559,-115.148516
Arica,3,-18.4785288,-70.3211394
Taichung,3,24.163162,120.6478282
Klhong Luang,3,,
Nakhon Sawan,3,15.7054772,99.9288481
Chatuchak Bangkok,3,13.8030357,100.5502304
Nakhonsawan,3,15.7013994,100.1279785
Ongkharak,3,14.1216261,101.0014337
District 5,3,14.73454895,121.07421404266891
Staten Island,3,40.5834557,-74.1496048
Belmont,3,48.4095949,7.234863
Gothenburg,3,57.7072326,11.9670171
Taoyuan,3,24.9929995,121.3010003
Shizuoka,3,34.9332488,138.0955398
Santiago de Compostela,3,42.8804219,-8.5458608
Pingtung,3,22.6828017,120.487928
Darwin,3,-12.46044,130.8410469
Hue,3,16.4639321,107.5863388
Patras,3,38.246242,21.7350847
St Louis,3,38.6280278,-90.1910154
Uangkok,3,,
Matsuyama,3,33.8395188,132.7653521
Trang,3,7.5892935,99.5032004
Quezon City,3,14.6510546,121.0486254
Phathumthani,3,,
Ratchathewi,3,13.7532229,100.5318599
Wakayama City,3,34.230411,135.17081
Changzhou,3,31.8122623,119.9691539
Chiayi,3,23.4591664,120.2930004
PathumThani,3,13.97270675,100.51976929479142
Hannover-Braunschweig,3,52.2553073,10.533848441360295
Wilrijk,3,51.1700864,4.3942577
Shenzhen,3,22.5445741,114.0545429
Lopburi,3,15.026458,100.8089178
Saga,3,33.2185408,130.1296585
Nakornnayok,3,13.99945765,100.66179723604716
Basel,3,47.5581077,7.5878261
Phutthamonthon,3,13.77689295,100.32084005734554
Montrouge,3,48.8188544,2.3194375
Guelph,3,43.5460516,-80.2493276
Muang,3,14.9172997,105.9014994
Thimphu,3,27.4713546,89.6336729
Regensburg,3,49.0195333,12.0974869
Perak,3,4.812181,100.9797908
Korea,3,37.9528488,126.73311710879327
Socorro,3,34.0572858,-106.8930799
Leeds,3,53.7974185,-1.5437941
Northern Ireland,3,54.5859836,-6.9591554
WPI),3,42.274315,-71.80845674552586
Central Java,3,-7.3032412,110.0044145
København Ø,3,55.6867243,12.5700724
Pitsanulok,3,16.9779975,100.3848239
Saint Jean d'Illac,3,44.8101856,-0.7815257
Aarhus,3,56.1496278,10.2134046
Normal,3,40.5092961,-88.9843937
Hanover,2,52.3744779,9.7385532
Tempe,2,33.4255117,-111.940016
Springfield,2,39.7990175,-89.6439575
Auburn,2,32.6098566,-85.4807825
West-Lafayette,2,40.4258686,-86.9080655
Qingdao,2,36.0637967,120.3192081
Samutsakorn,2,,
Guangdong,2,23.1357694,113.1982688
Klagenfurt,2,46.623943,14.3075976
Phudthamonthon,2,,
Morgantown,2,39.6296809,-79.9559437
Stoke-on-Trent,2,53.0162014,-2.1812607
Manipal,2,13.3519723,74.7870308
Ancon,2,-11.69655375,-77.11165474769231
Dalian,2,39.740278,122.255833
Skejby,2,56.1985875,10.1819444
Ratchaburi,2,13.6317897,99.3558216
Nagarparkar,2,24.3579216,70.7551
Braga,2,41.5510583,-8.4280045
Pitsanulok Province,2,16.9779975,100.3848239
Delft,2,52.0114017,4.35839
Pessac,2,44.805615,-0.6308396
Kharkiv,2,49.9923181,36.2310146
Nakhon,2,13.7524938,100.4935089
Greifswald,2,54.095791,13.3815238
Genève,2,46.2017559,6.1466014
Middlesex,2,51.546055800000005,-0.2537791389340719
NakornPathom,2,,
Birkbeck,2,51.4034563,-0.0565394
Chang Hua,2,37.0613752,-80.7610198
Nakorn Ratchasima,2,14.884424500000002,101.90462924870856
North Ryde,2,-33.7975472,151.127306
Chum Phae,2,16.5400365,102.102223
Gyöngyös,2,47.7799838,19.9291176
Payathai,2,,
Fuzhou,2,26.0774954,119.2918215
Thanyaburi,2,14.0326433,100.77222580320392
Pierre-Bénite,2,45.7028321,4.8241323
Kurashiki,2,34.5850791,133.7719957
Gwangju,2,35.1594647,126.8515034
Khonkaen,2,14.9842285,105.8737565
Ubonratchathani,2,15.2363234,104.8637823
Karachi,2,24.8546842,67.0207055
Ehime,2,33.6013646,132.8185275
Elkins Park,2,40.0770553,-75.1268413
Baton Rouge,2,30.4494155,-91.1869659
Jerusalem,2,31.7788242,35.2257626
Khartoum,2,15.5635972,32.5349123
Roslin,2,55.8573199,-3.1645521
Cham Phak Pheo,2,,
Monterrey,2,25.6802019,-100.315258
Nishihara,2,26.227791,127.76054
"Tsukuba,Ibaraki",2,36.0833265,140.077279
Pokfulam,2,22.2613585,114.1368109
Puerto Rico,2,18.2247706,-66.4858295
Tampere,2,61.4980214,23.7603118
"Meguro-ku,",2,35.6412891,139.6983834
Sai Ying Pun,2,22.286121,114.1420862
Bachkofc,2,,
Rostock,2,54.0886707,12.1400211
Potsdam-Golm,2,52.4068318,12.9682671
València,2,39.4697065,-0.3763353
Riyadh,2,18.0107143,-15.955326
Newark,2,40.735657,-74.1723667
Manama,2,26.2235041,50.5822436
Incheon,2,37.456,126.7052
Duarte,2,34.1394513,-117.9772873
I-Roma,2,-17.7825952,-63.1670021
Granada,2,37.1734995,-3.5995337
Jakarta Pusat,2,-6.18233995,106.84287153600738
Pathumtani,2,,
Hatfield,2,51.7634675,-0.2258741
Higashi-Hiroshima,2,34.42683,132.741552
Metro Manila,2,14.5736108,121.0329706
Thailand,2,14.8971921,100.83273
Rolla,2,37.9509324,-91.7708076
Bydgoszcz,2,53.1219648,18.0002529
Villeurbanne Cedex,2,,
Lahore,2,31.5656822,74.3141829
Linköping,2,58.4098135,15.6245252
Ludwigshafen,2,49.4704113,8.4381568
Greenwood,2,37.8709542,-96.2471338
Hefei,2,31.8665676,117.281428
Ho Chi Minh city,2,10.7763897,106.7011391
Lexington,2,38.0464066,-84.4970393
Vellore,2,12.9021849,79.06110398623842
Lusaka,2,-15.4163395,28.2818414
Mexico,2,19.4326296,-99.1331785
Otto,2,42.356173,-78.8317
Tainan,2,22.9912348,120.184982
Eldoret,2,0.5198329,35.2715481
Penang,2,5.4065013,100.2559077
Kota Bharu,2,6.12584,102.2399785
Stuttgart,2,48.7784485,9.1800132
Bengkulu,2,-3.5186763,102.5359834
Alnarp,2,55.6576066,13.0834259
Reading,2,51.4564242,-0.9700664
Norfolk,2,52.666667,1.0
Regina,2,50.4479733,-104.6158764
Reims,2,49.2577886,4.031926
Tochigi,2,36.6782167,139.8096549
Humark,2,54.5787256614335,9.924395766398113
Quebec,2,53.78701075,-73.31569895762317
Washington DC,2,38.8950368,-77.0365427
Iquitos,2,-3.749365,-73.2444145
Chios,2,38.37581315,26.064655246170453
Tokushima,2,33.9196418,134.2509634
Omuta,2,33.047013,130.464155
Kota Kinabalu,2,5.9780066,116.0728988
Newcastle upon Tyne,2,54.9738474,-1.6131572
Poznań,2,52.4006632,16.91973259178088
Gaziantep,2,37.0628317,37.3792617
Prathumwan Bangkok,2,13.7375015,100.52063702182524
Sakai,2,34.5737364,135.4828866
New York City,2,40.7127281,-74.0060152
Kabupaten Belitung,2,-2.747504,107.649791
Tübingen,2,48.5203263,9.053596
Laxenburg,2,48.0686831,16.3561206
Kanpur,2,26.4609135,80.3217588
Hohhot,2,40.8400679,111.742171
Portsmouth,2,50.800031,-1.0906023
Andong,2,40.1237658,124.3821748
Nottingham,2,52.9534193,-1.1496461
San Luis Potosi,2,22.5000001,-100.4949145
Guwahati,2,26.1805978,91.753943
Thika,2,-1.036648,37.077523
Panama City,2,30.1586518,-85.6602936
Changsha,2,28.1450774,113.2384362
Pattani,2,6.6997443,101.3989917
Cheras,2,3.0991919,101.7374229
Irkutsk,2,52.2891225,104.279829
Columbia,2,4.099917,-72.9088133
I-Dublin,2,8.12623585,-13.204135237099365
Mesa,2,33.4151005,-111.831455
Garching b. Munchen,2,48.2513878,11.6509662
Antony,2,48.753554,2.2959423
Yogyakarta,2,-7.9778383999999996,110.36722565020224
Suratthani,2,9.4272962,99.9840826
Kure,2,34.2484488,132.5652498
Kowloon Tong,2,22.334635,114.177078
Ho Chi Minh,2,10.7763897,106.7011391
Gdansk,2,54.42880315,18.79832701217957
Damaturu Yobe State,2,,
Sungai Buloh,2,3.20626325,101.58184797581065
Saint-Genis-Laval,1,45.6950021,4.7928827
Tyler,1,32.3512601,-95.3010624
Odawara,1,35.2645301,139.152246
Magdeburg,1,52.1315889,11.6399609
Muang Tak,1,16.8768919,99.130861694739
Lodz,1,51.7687323,19.4569911
Bowling Green,1,36.9903199,-86.4436018
Shatin,1,22.3815527,114.1904697
Russia,1,64.6863136,97.7453061
Ladkrabang Bangkok,1,13.727350900000001,100.76590701152774
Brasov,1,45.6525105,25.6105654
Klongluang,1,14.02229915,100.61446373985318
Bethlehem,1,-1.45056,-48.4682453
Joondalup,1,-31.77955,115.76474475668536
Esch-sur-Alzette,1,49.4959628,5.9850306
North-Bangkok-Bangkok,1,39.31442587970679,-94.70110398303532
Pantai Dalam,1,3.0956311,101.67004877858767
Kitayushu City,1,,
Savannah,1,32.0790074,-81.0921335
19 Santiago,1,-32.934213838576184,-60.653665013326005
Bendigo,1,-36.7590183,144.2826718
Jhongli,1,24.96236115,121.21014621563418
Nadia,1,23.4847374,88.55670673333935
Leezen,1,53.662402,11.4985867
Hoddesdon,1,51.7616709,-0.0112898
Canberra,1,-35.2975906,149.1012676
Rzeszów,1,50.013064,22.016143457294312
Curitiba,1,-25.4295963,-49.2712724
Diepenbeek,1,50.9078485,5.4200307
Staffordshire,1,52.824694199999996,-2.0074546723348115
Phrasaeng,1,8.5706466,99.2457732
Sorbonne Paris Cité,1,48.8263407,2.3463455
Roseworthy,1,-34.5332267,138.7467051
Juba,1,4.8459246,31.5959173
Jíloviště,1,49.9275221,14.3427364
Orléans Cedex 2,1,,
Chonju,1,37.5686637,126.9759429
Iasi,1,47.1615598,27.5837814
Copenhagen Ø,1,55.6867243,12.5700724
Oakland,1,37.8044557,-122.271356
Pathum thani,1,14.048667,100.5640405
Muang Phayao,1,19.1666313,99.9019423
Frankfurt,1,50.1106444,8.6820917
Pulau Pinang,1,5.4065013,100.2559077
Taoyuan City,1,24.9929995,121.3010003
District Hoan Kiem,1,21.0281683,105.8511514
Greenbelt,1,38.9933654,-76.88333238304114
Prishtina,1,42.6638771,21.1640849
Santa-Maria,1,-29.6860512,-53.8069214
Naypyitaw,1,19.7540045,96.1344976
Leiria,1,39.7437902,-8.8071119
Melaka,1,2.3293744,102.2880962
Roi-Et,1,15.7486448,103.7013017
Rzeszow,1,50.013064,22.016143457294312
Basingstoke,1,51.262826,-1.0861976
Tegucigalpa,1,14.1057433,-87.2040052
Patna,1,25.6093239,85.1235252
Yufu,1,33.1800993,131.4269323
Nakon Pathom,1,13.8918425,100.0165659
Orange,1,33.750631,-117.8722311
Prathum Thani,1,,
Andhra Pradesh,1,15.9240905,80.1863809
Westmead,1,-33.8076498,150.9877265
Yilan,1,46.3208082,129.5650414
Ullevål,1,59.9413211,10.7373109
Gadong,1,2.7002289,101.8302876
Santo Domingo,1,18.4801972,-69.942111
Caracas,1,10.5060934,-66.9146008
Lucknow,1,26.8381,80.9346001
San-Luis-Potosi,1,22.5000001,-100.4949145
Harare,1,-17.8567035,31.0601584
Rio de Janeiro-RJ,1,-22.9110137,-43.2093727
Camden,1,39.9448402,-75.1198911
Berkley,1,41.9441774,-94.1137041
Al-Ain,1,24.2248697,55.7452211
Yokohama City,1,35.333283449999996,139.61792321729723
Ramat Gan,1,32.0686867,34.8246812
Macau,1,22.1757605,113.5514142
District 4,1,5.9048850999999996,-9.735370357014705
Blanes,1,41.6756178,2.7932391
Edgbaston,1,52.4709941,-1.9225861
Johnson City,1,36.3134398,-82.3534728
St Lucia,1,13.8250489,-60.975036
Phuentsholing,1,26.8639605,89.3837363
Xian,1,38.1904931,116.1191021
Malaga,1,36.7213028,-4.4216366
Aurora,1,41.7571701,-88.3147539
San Pedro Sula,1,15.5062156,-88.0248937
Pan-Chiao,1,37.4915493,111.0946898
Pretoria,1,-25.7459277,28.1879101
Baja-California,1,30.0338923,-115.1425107
Sunspot,1,32.7892103,-105.81857
Songkhla Province,1,6.8790221,100.5498542
Huddinge,1,59.216667,18.0
Hainan Sheng,1,19.2000001,109.5999999
Myanmar,1,17.1750495,95.9999652
Nizhniy Novgorod,1,56.3264816,44.0051395
St. Lucia,1,13.8250489,-60.975036
Cebu,1,10.47,123.83
Edegem,1,51.1548066,4.4458312
Harbin,1,45.7593633,126.6276177
KhonKaen,1,14.9842285,105.8737565
Boxmeer,1,51.6486483,5.9450972
Leicester,1,52.6362,-1.1331969
Ahmedabad,1,23.0215374,72.5800568
Zaragoza,1,41.6521342,-0.8809428
Ningbo,1,29.8622194,121.6203873
Black Mountain,1,43.6065985,-73.5311521
The Parade Cardiff,1,51.508917530249036,-3.2306963567585436
São José dos Campos,1,-23.1867782,-45.8854538
Slim River,1,3.8268296,101.4022678
Kortenberg,1,50.895358099999996,4.565683393303372
Gland,1,49.0488889,3.4630556
Düsseldorf,1,51.2254018,6.7763137
Taiyuan Shanxi,1,37.870009,112.5452739
Kuala Terengganu,1,5.3296461,103.1383265
Mason,1,30.705029,-99.2233284
Evansville,1,37.970495,-87.5715641
Charlestown,1,42.3778749,-71.0619957
Wonju,1,37.3420996,127.9197603
Nakornratchasima,1,,
Biopolis,1,1.3032643,103.79259033521095
Venice,1,45.4371908,12.3345898
Zabol,1,32.3068942,67.129904
Kantarawichai,1,,
S-Gothenburg,1,57.7473334,12.03069907676879
Dwingeloo,1,52.8333073,6.3669053
Lausanne,1,46.5218269,6.6327025
Shenyang,1,41.8026095,123.4279105
Milwaukee,1,43.0386475,-87.9090751
Fargo,1,46.877229,-96.789821
Hokkaido Prefecture,1,43.4519831,142.8197834
Bartlesville,1,36.7421089,-95.9528877
Mogadishu,1,2.0349312,45.3419183
Roche sur Yon,1,46.6705431,-1.4269698
Hobart,1,-42.8825088,147.3281233
Trat,1,12.2593544,102.4268871
Noida,1,28.5706333,77.3272147
Maisons-Alfort,1,48.8012045,2.4309703
Shijiiazhuang,1,,
Semarang,1,-6.9903988,110.4229104
Hong Kong SAR,1,22.350627,114.1849161
Fernando de la Mora,1,-25.3281673,-57.5521492
Oldenburg,1,53.1389753,8.2146017
Hochiminh City,1,10.7238881,106.73130505822276
Shaanxi,1,35.5895959,109.3013107
Iloilo,1,10.9522168,122.5799456
Amphur Klongluang,1,,
Bad Oeynhausen,1,52.2014399,8.7981244
Kamphaeng Saen,1,14.0026158,99.990904
Tampa,1,27.9477595,-82.458444
Nam Dinh,1,20.2686476,106.2289075
Porrentruy,1,47.4171297,7.0761342
Daito,1,34.7120151,135.6235341
Grand Junction,1,39.0672568,-108.56448
Samut Prakan,1,13.6531651,100.8182578
Ha Noi City,1,21.0283334,105.854041
Bremen,1,53.0758196,8.8071646
Malvern,1,52.1159559,-2.3258985
Lalitpur,1,24.6999688,78.51861997577222
Sfax,1,34.7394361,10.7604024
Marañón,1,42.628671,-2.4391688
Don Kaeo Mae Rim Chiang Mai,1,18.8933894,98.9540905
Trzebnica,1,51.3096424,17.062596
Framingham,1,42.2773177,-71.4165905
Depok,1,-6.40719,106.8158371
Lviv,1,49.841952,24.0315921
Viseu,1,40.6574713,-7.9138664
Kassel,1,51.3157833,9.4978479
Nakon Si Thammarat,1,8.6772337,99.7309635
Prathumthani,1,,
Aspendale,1,-38.0272365,145.1021263
Terni,1,42.6539486,12.439652829139407
Hat Yai Songkhla,1,7.0074644,100.4689889
Uji,1,39.994311999999994,-0.07139616293945164
Onna-son,1,26.493888,127.865372
Chiba Kashiwa,1,35.8676218,139.9756876
Ube,1,33.9518498,131.2472243
Mtubatuba,1,-28.415707,32.1884598
Ultimo,1,46.512090549999996,10.899735392353554
Cedex,1,40.39313425,-3.7045879222384084
Can Tho,1,10.0364634,105.7875821
Santiago de Chile,1,-33.4377756,-70.6504502
Sri Racha,1,12.970504,77.6449169
Nakagami,1,26.40293425,127.67380814421989
Guiyang,1,26.6499922,106.6246178
Chonnan,1,,
Bandar Sunway,1,3.0713838,101.6089714
Yobe State,1,11.852160666848366,13.059601277479349
Miyazaki,1,32.097681,131.294542
Rio Grande do Sul,1,-29.8425284,-53.7680577
Phranakhon Si Ayutthaya,1,14.3458027,100.56432131284333
Mie,1,34.7339685,136.5154489
Wangdue Phodrang,1,27.4883053,89.9006295
St-Petersburg,1,59.9606739,30.1586551
Cochabamba,1,-17.401245799999998,-66.16756808852
Sesto Fiorentino (Firenze),1,43.831721,11.1992239
Xiemen,1,,
Ft. Lauderdale,1,26.1223084,-80.1433786
Noordwijk,1,52.2410856,4.4461969
Nakhonnayok,1,,
Cluj Napoca,1,46.769379,23.5899542
Reno,1,39.5261206,-119.8126581
Mikata,1,35.5557398,135.9093925
Ribeirão Preto,1,-21.1776315,-47.8100983
Garching bei München,1,48.2513878,11.6509662
Swiftwater,1,41.0953683,-75.3249054
Beirut,1,33.88922645,35.50255852895232
Loma Linda,1,34.0537971,-117.2610925
Cheongwon-gun,1,35.31230050459413,129.2353548444568
Hasselt,1,50.9303735,5.3378043
Bordeaux,1,44.841225,-0.5800364
Raritan,1,40.6958732,-90.8273591
Mueang,1,13.2684945,100.9676152
Sao Joao del Rei,1,-21.1335755,-44.2588086
Ontario,1,49.24325145,-87.16237136047111
Sakon‐Nakhon,1,17.1904453,103.9730898
Nablus,1,32.2205316,35.2569374
Little Rock,1,34.7465071,-92.2896267
Kawagoe,1,35.9251145,139.4856927
Apodaca,1,25.7871006,-100.18507694543185
Canterbury,1,51.2800275,1.0802533
Meldola,1,44.1267212,12.0611527
Higashihiroshima,1,34.42683,132.741552
Tsuruoka,1,38.7272187,139.8266292
Hershey,1,40.2854881,-76.6506001
Beni Suef,1,28.83826875,30.854476821535407
Cali,1,3.4519988,-76.5325259
Miyagi,1,38.3880155,140.9761025
Balboa Ancon,1,8.9495435,-79.5529019
Srisaket,1,15.156463625848124,104.32431067467529
Tlalpan,1,19.2880603,-99.1669733
Muang Samut Sakhon,1,13.457904204768745,100.07218580954472
Besançon,1,47.2380222,6.0243622
Maastricht,1,50.8512438,5.6909768
Lembah Pantai,1,3.101597,101.6688966
Seri Iskander,1,,
BangKapi Bangkok,1,13.7650322,100.6473896
Madurai,1,9.9261153,78.1140983
Nis,1,37.466746900000004,127.07367801872323
New Territories,1,22.4300716,114.0724197
Dusit,1,14.54847015,121.02615697985287
High Wycombe,1,51.6317449,-0.75596
Southeast Sulawesi,1,-3.5491199,121.7279646
Rajinder Nagar,1,28.6357855,77.1841395
Menglembu,1,4.5703949,101.0412509
Samut Sakhon,1,13.5708192,100.2585874
L'Aquila,1,42.1368853,13.610341022538911
San Juan,1,18.384239049999998,-66.05343997364733
Ikoma,1,34.6915267,135.6961681
Timisoara,1,45.7538355,21.2257474
Milton Keynes,1,52.0406502,-0.7594092
Fribourg,1,46.6789116,7.1027113
Valparaiso,1,41.4672552,-87.0604487
Bellinzona,1,46.1920538,9.0205888
North Shields,1,55.0087655,-1.4471035
ChonBuri,1,13.1857117,101.1210777
Klong luang,1,14.08220345,100.61292424999999
Bad Salzuflen,1,52.0771518,8.7554739
Wageningen,1,51.9685817,5.668298061827958
Nakornratchasrima,1,,
Changhua City,1,24.0807667,120.5423
Leuven-Kortenberg,1,50.895358099999996,4.565683393303372
Donetsk,1,48.0158753,37.8013407
Kubang Kerian Kelantan,1,6.0940366,102.2845137
Tours,1,47.3900474,0.6889268
Changchun,1,43.8844201,125.3180998
Chigasaki,1,35.329479,139.405371
East Java,1,-7.6977397,112.4914199
Kansas City,1,39.100105,-94.5781416
Mossoró,1,-5.1904332,-37.3443872
Sasso Marconi,1,44.3996319,11.247554
Beckenham,1,51.4070938,-0.0303183
Nan,1,46.3144754,11.0480288
Tjele,1,56.5120126,9.6099502
Maputo,1,-25.966213,32.56745
Tocha,1,40.3135671,-8.7522209
Haikou,1,20.0462328,110.1956502
Abu Dhabi,1,24.4538352,54.3774014
Eskisehir,1,39.7743941,30.519116
Riyyad,1,,
Warszawa,1,52.2337172,21.071432235636493
Naka,1,35.1693921,136.9008748
Collegeville,1,40.1856597,-75.451571
Auckland Park,1,54.653804,-1.6519911
Windsor,1,42.2858536,-82.9780695
St Petersburg,1,59.9606739,30.1586551
Billerica,1,42.5584264,-71.268947
Essen,1,51.4582235,7.0158171
Morristown,1,40.7970382,-74.4809868
S. Maria di Galeria,1,42.0222516,12.317265
Maiduguri,1,11.8395375,13.1536214
Varna,1,43.2052135,27.860202452255194
Westford,1,42.5792583,-71.4378411
Zlin,1,49.226766,17.6667415
Cherbourg-Octeville,1,49.6343543,-1.6285770868661507
Cosnes et Romain,1,49.5187211,5.7125127
Higashi-hiroshima,1,34.42683,132.741552
Copenhagen K,1,55.69702825,12.571254900000007
Jena,1,50.9281717,11.5879359
Nakorn Nayok,1,,
Oak Ridge,1,36.0103562,-84.2696449
Moscow Region,1,10.43273225,45.01048070516942
Villejuif,1,48.7921098,2.3633048
Mansoura,1,36.10035435,4.471575073452465
Orema,1,-24.8250905,-49.7523857
Ladkrabang,1,13.727350900000001,100.76590701152774
Suphanburi,1,14.6777,100.0350785
Accra,1,5.5571096,-0.2012376
Scotland and London,1,51.51353975,-0.11179404401134206
Balaguères,1,42.9562169,1.0386531
Tacoma,1,47.2455013,-122.438329
Nairobi,1,-1.2832533,36.8172449
Gdynia,1,54.5164982,18.5402738
Wroclaw,1,51.1089776,17.0326689
Bandung,1,-6.9215529,107.6110212
Tungkru Bangkok,1,,
Valencia,1,39.4697065,-0.3763353
Jacksonville,1,30.3321838,-81.655651
Corvallis,1,44.5645659,-123.2620435
Koto,1,35.6727747,139.8169621
Pittsanulok,1,,
Sagamihara,1,35.5714621,139.3731052
RJ,1,-22.2752762,-42.419415
Nakhon Nayok,1,14.1494474,101.2177459
Gangneung,1,37.7525313,128.8759523
Ann Town,1,43.414276,-73.487892
Laramie,1,41.3116442,-105.5917876
Champaign,1,40.1164841,-88.2430932
New London,1,41.3556187,-72.0997804
Dubai,1,25.2653471,55.2924914
Nakhonsrithammarat,1,,
Harrogate,1,53.9921491,-1.5391039
Townsville,1,-19.2569391,146.8239537
Fairfax,1,38.8462236,-77.3063733
Sevilla,1,37.3886303,-5.9953403
Wuhu Anhui,1,31.1800568,118.2141777
Global City,1,36.21518745,44.13330442052406
Jalisco,1,20.3333331,-103.6666671
Orleans,1,47.9027336,1.9086066
Kuching,1,1.5597561,110.345397
Queensland,1,-22.1646782,144.5844903
Hermagor,1,46.7046314,14.146153399999996
Patumthani,1,,
Research Triangle Park,1,35.8923773,-78.86588989367681
Loudonville,1,40.6355985,-82.2334461
Jiangxi Province,1,28.6456256,115.8563692
IkejiArakeji,1,,
Baguio,1,16.4119905,120.5933719
Marseilles,1,41.3308666,-88.7081293
Gorleston,1,52.5778559,1.7273353
Bangkruai Nonthaburee,1,,
St Paul,1,44.9497487,-93.0931028
Addis Ababa,1,9.0358287,38.7524127
Syracuse,1,43.0481221,-76.1474244
Hikone,1,35.2744066,136.2596539
Havana,1,23.135305,-82.3589631
Maharashtra,1,18.9068356,75.6741579
Skudai,1,1.5369721,103.662103
Narita,1,35.7767683,140.3183376
Gouveia,1,-18.4545728,-43.7415904
Makati,1,14.5567949,121.0211226
Pahang,1,3.6168822,102.5994547
Orlando,1,28.5421109,-81.3790304
Gyeongsang,1,36.5754,128.5058
los angeles,1,34.0536909,-118.242766
Leoben,1,47.3805128,15.0947756
Balboa,1,42.7062532,-6.9228651
Kubang Kerian,1,6.0940366,102.2845137
Changhua,1,24.0755667,120.5444667
Kalasin,1,16.5912597,103.6525467
Belitung,1,-2.88428125,107.6631595873786
Ikoma-city,1,34.67737115,135.70681144629694
Bath,1,51.3813864,-2.3596963
Yvoir,1,50.3260425,4.877815
Bangsue. Bangkok,1,13.8062312,100.53281074723111
AF,1,33.7680065,66.2385139
Mountain View,1,37.3893889,-122.0832101
Adliya,1,26.2138794,50.58616577253514
Bangi Selangor,1,2.9039611499999998,101.78608891062538
Nakorn Si Thammarat,1,8.415357602609019,99.98058535368865
Benin City,1,6.3330586,5.6221058
Saint-Hyacinthe,1,45.627484,-72.940636
Krung Thep Maha Nakhon,1,13.7524938,100.4935089
Wanju,1,35.9039,127.1622
Denver,1,39.7392364,-104.984862
Fort Wayne,1,41.0799898,-85.1386015
Erzurum,1,39.90632,41.2727715
Poznan,1,52.4082663,16.9335199
lasi,1,54.211937,27.10051
Uchinada,1,36.6628934,136.6549747
Roorkee,1,29.8693496,77.8902124
Szeged,1,46.2546312,20.1486016
